{"data": [{"id": "712", "loc_name": "教育学院", "lon": "117.170143", "lat": "34.256325"}, {"id": "713", "loc_name": "长乐瑜伽学院", "lon": "117.249231", "lat": "34.249660"}, {"id": "714", "loc_name": "口红学院", "lon": "117.243041", "lat": "34.244092"}, {"id": "715", "loc_name": "七田儿童学院", "lon": "117.467156", "lat": "34.440861"}, {"id": "716", "loc_name": "北京八维学院", "lon": "118.347977", "lat": "34.364487"}, {"id": "717", "loc_name": "徐州工会学院", "lon": "117.288026", "lat": "34.204566"}, {"id": "718", "loc_name": "成功健身学院", "lon": "117.177455", "lat": "34.190245"}, {"id": "719", "loc_name": "MT时尚学院", "lon": "117.150588", "lat": "34.254887"}, {"id": "720", "loc_name": "北京汽车工程学院(徐州校区)", "lon": "117.475687", "lat": "34.424872"}, {"id": "721", "loc_name": "徐州市东方专修学院", "lon": "117.197057", "lat": "34.264999"}, {"id": "722", "loc_name": "徐州工程学院(中心校区)", "lon": "117.301727", "lat": "34.193295"}, {"id": "723", "loc_name": "徐州市社会主义学院", "lon": "117.193976", "lat": "34.247029"}, {"id": "724", "loc_name": "南航艾维国际飞行学院", "lon": "117.561946", "lat": "34.051209"}, {"id": "725", "loc_name": "徐州市农业科学院", "lon": "117.298588", "lat": "34.278248"}, {"id": "726", "loc_name": "晚报少年成长学院", "lon": "117.183377", "lat": "34.250249"}, {"id": "727", "loc_name": "徐州生物工程学院(新沂校区)", "lon": "118.404835", "lat": "34.356127"}, {"id": "728", "loc_name": "江苏省教育学院贾汪分院", "lon": "117.475866", "lat": "34.423163"}, {"id": "729", "loc_name": "赫拉之美·美学院", "lon": "117.297771", "lat": "34.207872"}, {"id": "730", "loc_name": "雨彤瑜伽灵修学院", "lon": "117.249602", "lat": "34.253707"}, {"id": "731", "loc_name": "徐州市行政学院", "lon": "117.193976", "lat": "34.247029"}, {"id": "732", "loc_name": "徐州市行政学院", "lon": "117.193976", "lat": "34.247029"}, {"id": "733", "loc_name": "罗芳彩妆美甲学院", "lon": "116.591980", "lat": "34.689170"}, {"id": "734", "loc_name": "江苏师范大学科文学院", "lon": "117.37496", "lat": "34.345479"}, {"id": "735", "loc_name": "北京维斯岛情商学院", "lon": "117.974043", "lat": "34.323108"}, {"id": "736", "loc_name": "江苏师范大学科文学院基础教学中心", "lon": "117.176660", "lat": "34.195831"}, {"id": "737", "loc_name": "徐州工程学院成教院邳州教学站", "lon": "117.958397", "lat": "34.307879"}, {"id": "738", "loc_name": "赏妃·国际·美学院", "lon": "117.202972", "lat": "34.269829"}, {"id": "739", "loc_name": "徐州工程学院", "lon": "117.301727", "lat": "34.193407"}, {"id": "740", "loc_name": "河北省石家庄协和医学院(徐州分院)", "lon": "117.158140", "lat": "34.183160"}, {"id": "741", "loc_name": "SARA国际东方舞培训机构", "lon": "117.213528", "lat": "34.272850"}, {"id": "742", "loc_name": "无锡南洋职业技术学院徐州教学中心", "lon": "117.204680", "lat": "34.330355"}, {"id": "743", "loc_name": "江苏省徐州技师学院", "lon": "117.109515", "lat": "34.277833"}, {"id": "744", "loc_name": "徐州工业职业技术学院(黄河校区)", "lon": "117.159284", "lat": "34.278079"}, {"id": "745", "loc_name": "九州职业技术学院", "lon": "117.161155", "lat": "34.184237"}, {"id": "746", "loc_name": "江苏建筑职业技术学院建筑技术馆", "lon": "117.174200", "lat": "34.205220"}, {"id": "747", "loc_name": "徐州工程学院老校区", "lon": "117.208841", "lat": "34.215582"}, {"id": "748", "loc_name": "江苏建筑职业技术学院招聘大厅", "lon": "117.179531", "lat": "34.201365"}, {"id": "749", "loc_name": "徐州高等师范学校江苏教育学院徐州分院", "lon": "117.184319", "lat": "34.194131"}, {"id": "750", "loc_name": "徐州工业职业技术学院", "lon": "117.142539", "lat": "34.299503"}, {"id": "751", "loc_name": "江苏建筑职业技术学院大学生发展中心", "lon": "117.179844", "lat": "34.201264"}, {"id": "752", "loc_name": "中国矿业大学文昌校区国际学院办公楼", "lon": "117.197425", "lat": "34.219568"}, {"id": "753", "loc_name": "江苏安全技术职业学院", "lon": "117.481569", "lat": "34.423275"}, {"id": "754", "loc_name": "江苏第二师范学院徐州分院(海河西路)", "lon": "117.184319", "lat": "34.194131"}, {"id": "755", "loc_name": "江苏师范大学音乐学院考级办公室", "lon": "117.182157", "lat": "34.195162"}, {"id": "756", "loc_name": "江苏安全技术职业学院(云龙校区)", "lon": "117.250858", "lat": "34.263182"}, {"id": "757", "loc_name": "中国人民大学网络教育学院徐州教学服务中心", "lon": "117.188356", "lat": "34.260073"}, {"id": "758", "loc_name": "南京医科大学主考专业徐州教学站", "lon": "117.304654", "lat": "34.280830"}, {"id": "759", "loc_name": "工程学院(公交站)", "lon": "117.299698", "lat": "34.197227"}, {"id": "760", "loc_name": "建筑学院(上海路口)(公交站)", "lon": "117.187706", "lat": "34.200924"}, {"id": "761", "loc_name": "工程学院(原来园校区)(公交站)", "lon": "117.212547", "lat": "34.214291"}, {"id": "762", "loc_name": "大成书法国学院", "lon": "117.158419", "lat": "34.258960"}, {"id": "763", "loc_name": "工程学院(城南校区)(公交站)", "lon": "117.216583", "lat": "34.214294"}, {"id": "764", "loc_name": "工程学院(公交站)", "lon": "117.212570", "lat": "34.214176"}, {"id": "765", "loc_name": "建筑学院(公交站)", "lon": "117.183105", "lat": "34.201721"}, {"id": "766", "loc_name": "后勤学院(公交站)", "lon": "117.186363", "lat": "34.280674"}, {"id": "767", "loc_name": "工程学院(中心校区)(公交站)", "lon": "117.299690", "lat": "34.197227"}, {"id": "768", "loc_name": "世澜国际商学院", "lon": "117.158711", "lat": "34.259322"}, {"id": "769", "loc_name": "高端贝尔丽纹绣商学院", "lon": "117.202970", "lat": "34.269825"}, {"id": "770", "loc_name": "徐州市作家协会少年文学院", "lon": "117.158419", "lat": "34.258960"}, {"id": "771", "loc_name": "徐州工程学院(公交站)", "lon": "117.212517", "lat": "34.214176"}, {"id": "772", "loc_name": "徐州工程学院(城南校区)(公交站)", "lon": "117.214561", "lat": "34.214149"}, {"id": "773", "loc_name": "工程学院南门(公交站)", "lon": "117.301620", "lat": "34.189175"}, {"id": "774", "loc_name": "师大科文学院(潘安湖校区)(公交站)", "lon": "117.372383", "lat": "34.340351"}, {"id": "775", "loc_name": "建筑学院西门(公交站)", "lon": "117.171310", "lat": "34.204762"}, {"id": "776", "loc_name": "徐州工程学院(中心校区)(公交站)", "lon": "117.299248", "lat": "34.197437"}, {"id": "777", "loc_name": "徐州幼儿师范高等专科学校", "lon": "117.247332", "lat": "34.292176"}, {"id": "778", "loc_name": "后勤学院北(公交站)", "lon": "117.177567", "lat": "34.283211"}, {"id": "779", "loc_name": "工业学院西门(公交站)", "lon": "117.137932", "lat": "34.298943"}, {"id": "780", "loc_name": "工业学院东门(公交站)", "lon": "117.147926", "lat": "34.296139"}, {"id": "781", "loc_name": "工业技术学院西门(公交站)", "lon": "117.137955", "lat": "34.298840"}, {"id": "782", "loc_name": "工业技术学院东门(公交站)", "lon": "117.147766", "lat": "34.296768"}, {"id": "783", "loc_name": "省经贸学院(公交站)", "lon": "117.249130", "lat": "34.296940"}, {"id": "784", "loc_name": "魔豆星学院", "lon": "116.621224", "lat": "34.683048"}, {"id": "785", "loc_name": "工业学院黄河校区(公交站)", "lon": "117.158264", "lat": "34.276936"}, {"id": "786", "loc_name": "中煤职业技术学院(公交站)", "lon": "116.916145", "lat": "34.818817"}, {"id": "787", "loc_name": "工程学院二期北门(公交站)", "lon": "117.305244", "lat": "34.195431"}, {"id": "788", "loc_name": "江苏安全技术职业学院(公交站)", "lon": "117.480333", "lat": "34.425143"}, {"id": "789", "loc_name": "徐州技师学院(公交站)", "lon": "117.109100", "lat": "34.275497"}, {"id": "790", "loc_name": "江苏省徐州技师学院(贾汪分院)", "lon": "117.395116", "lat": "34.310844"}, {"id": "791", "loc_name": "徐州工程学院(城南校区)管理学院", "lon": "117.215730", "lat": "34.212540"}, {"id": "792", "loc_name": "中煤职业技术学院(公交站)", "lon": "116.916145", "lat": "34.818817"}, {"id": "793", "loc_name": "工程学院二期北门(公交站)", "lon": "117.305244", "lat": "34.195431"}, {"id": "794", "loc_name": "江苏安全技术职业学院(公交站)", "lon": "117.480333", "lat": "34.425143"}, {"id": "795", "loc_name": "徐州技师学院(公交站)", "lon": "117.109100", "lat": "34.275497"}, {"id": "796", "loc_name": "江苏省徐州技师学院(贾汪分院)", "lon": "117.395116", "lat": "34.310844"}, {"id": "797", "loc_name": "徐州工程学院(城南校区)管理学院", "lon": "117.215730", "lat": "34.212540"}, {"id": "798", "loc_name": "江苏师范大学测绘学院", "lon": "117.185728", "lat": "34.200586"}, {"id": "799", "loc_name": "江苏师范大学科文学院中文系", "lon": "117.171802", "lat": "34.193246"}, {"id": "800", "loc_name": "徐州医科大学生命科学馆", "lon": "117.255010", "lat": "34.263393"}, {"id": "801", "loc_name": "江苏师范大学科文学院-经济学系", "lon": "117.171601", "lat": "34.193182"}, {"id": "802", "loc_name": "江苏师范大学科文学院-外语系", "lon": "117.171601", "lat": "34.193182"}, {"id": "803", "loc_name": "中煤职业技术学院", "lon": "116.915731", "lat": "34.82028"}, {"id": "804", "loc_name": "徐州机电技师学院", "lon": "117.346328", "lat": "34.289092"}, {"id": "805", "loc_name": "徐州市育才财经进修学院", "lon": "117.174318", "lat": "34.230302"}, {"id": "806", "loc_name": "徐州市立本进修学院(成教业余校区)", "lon": "117.193148", "lat": "34.253884"}, {"id": "807", "loc_name": "江苏师范大学科文学院-社会工作系", "lon": "117.171600", "lat": "34.193181"}, {"id": "808", "loc_name": "江苏师范大学科文学院机电工程系", "lon": "117.175865", "lat": "34.196401"}, {"id": "809", "loc_name": "徐州医科大学主校区", "lon": "117.256824", "lat": "34.261275"}, {"id": "810", "loc_name": "江苏师范大学科文学院", "lon": "117.476932", "lat": "34.425213"}, {"id": "811", "loc_name": "梦想健身学院(鹿家门训练基地)", "lon": "117.282592", "lat": "34.283178"}, {"id": "812", "loc_name": "北京维斯岛领袖学院", "lon": "117.974120", "lat": "34.322944"}, {"id": "813", "loc_name": "江苏师范大学科文学院管理系", "lon": "117.171819", "lat": "34.193236"}, {"id": "814", "loc_name": "中煤职业技术学院路口(公交站)", "lon": "116.919136", "lat": "34.817410"}, {"id": "815", "loc_name": "黄山外国语学院西校区(公交站)", "lon": "117.355049", "lat": "34.296772"}, {"id": "816", "loc_name": "徐州工业职业技术学院继续教育学院", "lon": "117.139110", "lat": "34.299768"}, {"id": "817", "loc_name": "徐州医科大学国际教育学院", "lon": "117.254300", "lat": "34.259860"}, {"id": "818", "loc_name": "江苏师范大学经济学院", "lon": "117.184903", "lat": "34.197956"}, {"id": "819", "loc_name": "江苏省徐州技师学院信息工程学院", "lon": "117.110625", "lat": "34.277209"}, {"id": "820", "loc_name": "江苏师范大学化学化工学院", "lon": "117.185340", "lat": "34.196650"}, {"id": "821", "loc_name": "徐州工程学院-数学与统计学院", "lon": "117.300922", "lat": "34.194672"}, {"id": "822", "loc_name": "江苏师范大学科文学院生物与化学系", "lon": "117.175774", "lat": "34.196326"}, {"id": "823", "loc_name": "徐州华宇专修学院-护理系", "lon": "117.187918", "lat": "34.201094"}, {"id": "824", "loc_name": "徐州工业职业技术学院-高分子实训中心", "lon": "117.139391", "lat": "34.300082"}, {"id": "825", "loc_name": "徐州医科大学-麻醉学院(西)", "lon": "117.258059", "lat": "34.261849"}, {"id": "826", "loc_name": "江苏师范大学科文学院-传媒与艺术系", "lon": "117.175733", "lat": "34.195837"}, {"id": "827", "loc_name": "江苏师范大学科文学院信息科学系", "lon": "117.171696", "lat": "34.193205"}, {"id": "828", "loc_name": "徐州生物工程学院北苑2号楼", "lon": "117.131481", "lat": "34.263297"}, {"id": "829", "loc_name": "江苏省徐州技师学院(西苑校区)", "lon": "117.154202", "lat": "34.273598"}, {"id": "830", "loc_name": "徐州经济技术开发区社区学院", "lon": "117.366940", "lat": "34.252822"}, {"id": "831", "loc_name": "江苏师范大学法律政治学院", "lon": "117.183562", "lat": "34.200181"}, {"id": "832", "loc_name": "徐州医科大学-菁英人才学院", "lon": "117.254420", "lat": "34.259330"}, {"id": "833", "loc_name": "徐州医科大学继续教育学院", "lon": "117.175351", "lat": "34.263803"}, {"id": "834", "loc_name": "徐州技师学院汽车工程系", "lon": "117.218903", "lat": "34.290421"}, {"id": "835", "loc_name": "徐州工程机械技师学院", "lon": "117.222536", "lat": "34.164362"}, {"id": "836", "loc_name": "江苏师范大学科文学院-环境与测绘系", "lon": "117.175910", "lat": "34.196300"}, {"id": "837", "loc_name": "徐州幼师师范高等专科学校", "lon": "117.250723", "lat": "34.295207"}, {"id": "838", "loc_name": "徐州医学院国际教育学院", "lon": "117.254300", "lat": "34.259860"}, {"id": "839", "loc_name": "江苏师范大学机电工程学院", "lon": "117.185728", "lat": "34.200586"}, {"id": "840", "loc_name": "徐州医科大学-医学影像学院", "lon": "117.256130", "lat": "34.262299"}, {"id": "841", "loc_name": "徐州幼儿高等师范学校音乐舞蹈系", "lon": "117.247674", "lat": "34.291631"}, {"id": "842", "loc_name": "徐州医科大学-研究生学院", "lon": "117.253020", "lat": "34.260500"}, {"id": "843", "loc_name": "徐州医科大学-公共教育学院", "lon": "117.256130", "lat": "34.262299"}, {"id": "844", "loc_name": "江苏师范大学技术教育学院", "lon": "117.190723", "lat": "34.248677"}, {"id": "845", "loc_name": "北大青鸟中博软件学院(解放路校区)", "lon": "117.193648", "lat": "34.246363"}, {"id": "846", "loc_name": "华东师范大学网络教育学院", "lon": "116.926988", "lat": "34.737199"}, {"id": "847", "loc_name": "江苏建筑职业技术学院-建筑设备与环境工程系", "lon": "117.178580", "lat": "34.201930"}, {"id": "848", "loc_name": "江苏师范大学", "lon": "117.190557", "lat": "34.248135"}, {"id": "849", "loc_name": "徐州工程学院-信电工程学院", "lon": "117.300470", "lat": "34.194658"}, {"id": "850", "loc_name": "江苏师大泉山校区-教育科学学院", "lon": "117.183620", "lat": "34.200121"}, {"id": "851", "loc_name": "中国矿业大学成人教育学院", "lon": "117.194226", "lat": "34.216561"}, {"id": "852", "loc_name": "江苏师范大学", "lon": "117.190557", "lat": "34.248135"}, {"id": "853", "loc_name": "徐州工程学院-信电工程学院", "lon": "117.300470", "lat": "34.194658"}, {"id": "854", "loc_name": "江苏师大泉山校区-教育科学学院", "lon": "117.183620", "lat": "34.200121"}, {"id": "855", "loc_name": "中国矿业大学成人教育学院", "lon": "117.194226", "lat": "34.216561"}, {"id": "856", "loc_name": "江苏建筑职业技术学院建筑设备与市政工程学院", "lon": "117.178570", "lat": "34.201930"}, {"id": "857", "loc_name": "江苏广播电视大学沛县学院", "lon": "116.945255", "lat": "34.712506"}, {"id": "858", "loc_name": "江苏师范大学泉山校区-体育学院", "lon": "117.180620", "lat": "34.195371"}, {"id": "859", "loc_name": "徐州医科大学护理学院", "lon": "117.253315", "lat": "34.259187"}, {"id": "860", "loc_name": "中国矿业大学文昌校区应用技术学院", "lon": "117.199983", "lat": "34.220322"}, {"id": "861", "loc_name": "江苏安全技术职业学院教学综合楼", "lon": "117.249241", "lat": "34.263487"}, {"id": "862", "loc_name": "江苏师范大学马克思主义学院", "lon": "117.183622", "lat": "34.200185"}, {"id": "863", "loc_name": "江苏省徐州技师学院-丁楼技校", "lon": "117.110994", "lat": "34.276742"}, {"id": "864", "loc_name": "中国矿业大学南湖校区", "lon": "117.144521", "lat": "34.215107"}, {"id": "865", "loc_name": "徐州工程学院成人教育学院南门桥教学中心", "lon": "117.188356", "lat": "34.260073"}, {"id": "866", "loc_name": "中国矿业大学文昌校区-成人教育学院", "lon": "117.197463", "lat": "34.221161"}, {"id": "867", "loc_name": "江苏师范大学泉山校区物理与电子工程学院", "lon": "117.183423", "lat": "34.197873"}, {"id": "868", "loc_name": "江苏师范大学泉山校区化学与材料科学学院", "lon": "117.185251", "lat": "34.196742"}, {"id": "869", "loc_name": "江苏师范大学外国语学院", "lon": "117.183938", "lat": "34.200124"}, {"id": "870", "loc_name": "江苏师范大学哲学与公共管理学院", "lon": "117.183635", "lat": "34.200223"}, {"id": "871", "loc_name": "江苏师范大学物理与电子工程学院", "lon": "117.183584", "lat": "34.197627"}, {"id": "872", "loc_name": "中国矿业大学徐海学院", "lon": "117.198786", "lat": "34.221542"}, {"id": "873", "loc_name": "中国矿业大学文昌校区信息与电气工程学院", "lon": "117.197583", "lat": "34.220551"}, {"id": "874", "loc_name": "中国矿业大学南湖校区马克思主义学院", "lon": "117.147442", "lat": "34.218020"}, {"id": "875", "loc_name": "中国矿业大学南湖校区公共管理学院", "lon": "117.147442", "lat": "34.218097"}, {"id": "876", "loc_name": "中国矿业大学南湖校区矿业工程学院", "lon": "117.151338", "lat": "34.217783"}, {"id": "877", "loc_name": "徐州开放大学", "lon": "117.15999", "lat": "34.250144"}, {"id": "878", "loc_name": "江苏师范大学泉山校区外国语学院", "lon": "117.183927", "lat": "34.200080"}, {"id": "879", "loc_name": "中国矿业大学南湖校区数学学院", "lon": "117.146705", "lat": "34.215723"}, {"id": "880", "loc_name": "江苏师范大学泉山校区音乐学院", "lon": "117.182449", "lat": "34.194963"}, {"id": "881", "loc_name": "中国矿业大学南湖校区力学与土木工程学院", "lon": "117.150115", "lat": "34.216861"}, {"id": "882", "loc_name": "徐州经贸高等职业学校", "lon": "117.251823", "lat": "34.297559"}, {"id": "883", "loc_name": "中国矿业大学南湖校区化工学院", "lon": "117.150753", "lat": "34.216111"}, {"id": "884", "loc_name": "中国矿业大学南湖校区计算机科学与技术学院", "lon": "117.146931", "lat": "34.217634"}, {"id": "885", "loc_name": "中国矿业大学南湖校区环境与测绘学院", "lon": "117.150169", "lat": "34.217434"}, {"id": "886", "loc_name": "中国矿业大学南湖校区管理学院", "lon": "117.147444", "lat": "34.215304"}, {"id": "887", "loc_name": "中国矿业大学南湖校区安全工程学院", "lon": "117.152834", "lat": "34.216699"}, {"id": "888", "loc_name": "中国矿业大学南湖校区机电工程学院", "lon": "117.149949", "lat": "34.215243"}, {"id": "889", "loc_name": "江苏省徐州财经高等职业技术学校", "lon": "117.172431", "lat": "34.228178"}, {"id": "890", "loc_name": "中国矿业大学南湖校区外国语言文化学院", "lon": "117.147612", "lat": "34.218450"}, {"id": "891", "loc_name": "中国矿业大学南湖校区资源与地球科学学院", "lon": "117.150676", "lat": "34.218576"}, {"id": "892", "loc_name": "中国矿业大学文昌校区", "lon": "117.201202", "lat": "34.219003"}, {"id": "893", "loc_name": "江苏师范大学(贾汪校区)", "lon": "117.477191", "lat": "34.427745"}, {"id": "894", "loc_name": "中国矿业大学南湖校区物理教学实验中心", "lon": "117.146224", "lat": "34.216359"}, {"id": "895", "loc_name": "江苏师范大学奎园校区", "lon": "117.200332", "lat": "34.228645"}, {"id": "896", "loc_name": "中国矿业大学党政办公楼", "lon": "117.149464", "lat": "34.213231"}, {"id": "897", "loc_name": "学生事务服务中心", "lon": "117.176472", "lat": "34.196404"}, {"id": "898", "loc_name": "研三楼", "lon": "117.139839", "lat": "34.208258"}, {"id": "899", "loc_name": "江苏师大泉山校区静远楼", "lon": "117.183382", "lat": "34.198881"}, {"id": "900", "loc_name": "中国矿业大学研究生院(装修中)", "lon": "117.198086", "lat": "34.221543"}, {"id": "901", "loc_name": "徐州杰威", "lon": "117.197760", "lat": "34.263600"}, {"id": "902", "loc_name": "中国矿业大学文昌校区学术交流中心", "lon": "117.202325", "lat": "34.218709"}, {"id": "903", "loc_name": "邳州开放大学", "lon": "118.026712", "lat": "34.347235"}, {"id": "904", "loc_name": "江苏师范大学", "lon": "117.186204", "lat": "34.198090"}, {"id": "905", "loc_name": "泰国格乐大学(淮海国际事务中心)", "lon": "117.176439", "lat": "34.265560"}, {"id": "906", "loc_name": "北京黄埔大学(沛县分校)", "lon": "116.948404", "lat": "34.709449"}, {"id": "907", "loc_name": "江苏师范大学吴韵楼", "lon": "117.190110", "lat": "34.249475"}, {"id": "908", "loc_name": "泰国博仁大学", "lon": "117.176658", "lat": "34.265850"}, {"id": "909", "loc_name": "江苏师范大学泉山校区琴楼", "lon": "117.182135", "lat": "34.195202"}, {"id": "910", "loc_name": "江苏师范大学艺术文献中心", "lon": "117.182684", "lat": "34.196472"}, {"id": "911", "loc_name": "中国矿业大学工程训练中心", "lon": "117.204896", "lat": "34.218085"}, {"id": "912", "loc_name": "泰国博仁大学", "lon": "117.176658", "lat": "34.265850"}, {"id": "913", "loc_name": "江苏师范大学泉山校区琴楼", "lon": "117.182135", "lat": "34.195202"}, {"id": "914", "loc_name": "江苏师范大学艺术文献中心", "lon": "117.182684", "lat": "34.196472"}, {"id": "915", "loc_name": "中国矿业大学工程训练中心", "lon": "117.204896", "lat": "34.218085"}, {"id": "916", "loc_name": "徐州市老干部大学", "lon": "117.199937", "lat": "34.260786"}, {"id": "917", "loc_name": "中国矿业大学党委保卫部", "lon": "117.143125", "lat": "34.218924"}, {"id": "918", "loc_name": "中国矿业大学体育器材室", "lon": "117.143573", "lat": "34.217632"}, {"id": "919", "loc_name": "中国矿业大学文昌校区主楼", "lon": "117.198677", "lat": "34.221562"}, {"id": "920", "loc_name": "徐州医科大学教学实验主楼", "lon": "117.256254", "lat": "34.262019"}, {"id": "921", "loc_name": "中国矿业大学党委学生工作部", "lon": "117.143125", "lat": "34.218924"}, {"id": "922", "loc_name": "江苏师范大学翻译硕士教育中心", "lon": "117.184073", "lat": "34.200154"}, {"id": "923", "loc_name": "徐州医科大学教学实验楼B座", "lon": "117.255376", "lat": "34.262088"}, {"id": "924", "loc_name": "徐州医科大学教学实验楼C座", "lon": "117.256978", "lat": "34.262034"}, {"id": "925", "loc_name": "徐州医科大学教学实验楼A座", "lon": "117.256925", "lat": "34.262294"}, {"id": "926", "loc_name": "江苏师范大学现代教育技术中心", "lon": "117.185034", "lat": "34.200097"}, {"id": "927", "loc_name": "徐州医科大学教学主楼D座", "lon": "117.255437", "lat": "34.261802"}, {"id": "928", "loc_name": "中国矿业大学南湖校区矿业科学中心", "lon": "117.152676", "lat": "34.216129"}, {"id": "929", "loc_name": "中国矿业大学文昌校区离退休工作处", "lon": "117.199546", "lat": "34.218129"}, {"id": "930", "loc_name": "中国矿业大学南湖校区-研一楼", "lon": "117.140476", "lat": "34.209687"}, {"id": "931", "loc_name": "中国矿业大学文昌校区停车场", "lon": "117.201896", "lat": "34.218392"}, {"id": "932", "loc_name": "中国矿业大学学生党员工作站站务室", "lon": "117.140513", "lat": "34.210103"}, {"id": "933", "loc_name": "中国矿业大学学生党员工作站研讨室", "lon": "117.140495", "lat": "34.210102"}, {"id": "934", "loc_name": "中国矿业大学南湖校区公共教学4区", "lon": "117.143822", "lat": "34.211914"}, {"id": "935", "loc_name": "中国矿业大学南湖校区公共教学3区", "lon": "117.142751", "lat": "34.212609"}, {"id": "936", "loc_name": "中国矿业大学南湖校区公共教学二区A楼", "lon": "117.144056", "lat": "34.213935"}, {"id": "937", "loc_name": "中国矿业大学南湖校区公共教学一区C楼", "lon": "117.142403", "lat": "34.213366"}, {"id": "938", "loc_name": "中国矿业大学南湖校区数值计算实验教学中心", "lon": "117.146223", "lat": "34.216358"}, {"id": "939", "loc_name": "中国矿业大学泉山国家示范技术转移中心", "lon": "117.203183", "lat": "34.225290"}, {"id": "940", "loc_name": "徐州师范大学测绘与3S技术实验教学中心", "lon": "117.185530", "lat": "34.200420"}, {"id": "941", "loc_name": "江苏师范大学江苏茂通律师事务所法援工作站", "lon": "117.185010", "lat": "34.261389"}, {"id": "942", "loc_name": "中国矿业大学文昌校区学术交流中心3号楼", "lon": "117.202582", "lat": "34.218944"}, {"id": "943", "loc_name": "中国矿业大学文昌校区建筑工程系实验教学中心", "lon": "117.199720", "lat": "34.222050"}, {"id": "944", "loc_name": "江苏师范大学-圣彼得堡彼得大帝理工大学俄语中心", "lon": "117.172838", "lat": "34.193547"}, {"id": "945", "loc_name": "江苏师范大学文学院", "lon": "117.183643", "lat": "34.200113"}, {"id": "946", "loc_name": "江苏省丰县中等专业学校", "lon": "116.67326", "lat": "34.679916"}, {"id": "947", "loc_name": "中影艺术学校", "lon": "117.173985", "lat": "34.255224"}, {"id": "948", "loc_name": "医学院站(公交站)", "lon": "117.254913", "lat": "34.265221"}, {"id": "949", "loc_name": "徐州医学院(公交站)", "lon": "117.255123", "lat": "34.264620"}, {"id": "950", "loc_name": "江苏师范大学泉山校区-万博教育", "lon": "117.180520", "lat": "34.194572"}, {"id": "951", "loc_name": "徐州医科大学-药学院", "lon": "117.256130", "lat": "34.262299"}, {"id": "952", "loc_name": "江苏师范大学田家炳工学院", "lon": "117.185726", "lat": "34.200544"}, {"id": "953", "loc_name": "江苏师范大学泉山校区-田家炳工学院", "lon": "117.185530", "lat": "34.200420"}, {"id": "954", "loc_name": "江苏师范大学泉山校区-商学院", "lon": "117.177126", "lat": "34.196238"}, {"id": "955", "loc_name": "实验学校(公交站)", "lon": "118.348717", "lat": "34.336540"}, {"id": "956", "loc_name": "师范学校(公交站)", "lon": "117.185699", "lat": "34.192249"}, {"id": "957", "loc_name": "聋哑学校(公交站)", "lon": "117.128845", "lat": "34.312706"}, {"id": "958", "loc_name": "明德学校(公交站)", "lon": "117.970901", "lat": "34.330826"}, {"id": "959", "loc_name": "省经贸学校(公交站)", "lon": "117.249344", "lat": "34.296864"}, {"id": "960", "loc_name": "铜山师范学校(公交站)", "lon": "117.185707", "lat": "34.192310"}, {"id": "961", "loc_name": "广宇学校(公交站)", "lon": "116.598892", "lat": "34.706066"}, {"id": "962", "loc_name": "菁华学校(公交站)", "lon": "117.923256", "lat": "33.909988"}, {"id": "963", "loc_name": "徐州旅游学校", "lon": "117.182902", "lat": "34.256041"}, {"id": "964", "loc_name": "中等专业学校(公交站)", "lon": "118.026451", "lat": "34.347034"}, {"id": "965", "loc_name": "汉城国际学校(公交站)", "lon": "116.920082", "lat": "34.759972"}, {"id": "966", "loc_name": "华顿国际学校(公交站)", "lon": "117.296328", "lat": "34.189076"}, {"id": "967", "loc_name": "中等专业学校(公交站)", "lon": "116.947197", "lat": "34.713455"}, {"id": "968", "loc_name": "新东方烹饪学校(公交站)", "lon": "117.197380", "lat": "34.180573"}, {"id": "969", "loc_name": "农业干部学校(公交站)", "lon": "118.349777", "lat": "34.389370"}, {"id": "970", "loc_name": "黄山外国语学校(公交站)", "lon": "117.359680", "lat": "34.298653"}, {"id": "971", "loc_name": "金山桥实验学校(公交站)", "lon": "117.282967", "lat": "34.279034"}, {"id": "972", "loc_name": "鸿达学校", "lon": "116.948735", "lat": "34.712034"}, {"id": "973", "loc_name": "新城区实验学校东门(公交站)", "lon": "116.933731", "lat": "34.771130"}, {"id": "974", "loc_name": "新城区实验学校南门(公交站)", "lon": "116.931332", "lat": "34.768659"}, {"id": "975", "loc_name": "铜山中等专业学校(公交站)", "lon": "117.138344", "lat": "34.208122"}, {"id": "976", "loc_name": "徐州市城市职业学校", "lon": "117.251691", "lat": "34.261589"}, {"id": "977", "loc_name": "徐州中健科技学校", "lon": "117.094469", "lat": "34.310695"}, {"id": "978", "loc_name": "江苏模特艺术学校", "lon": "117.182695", "lat": "34.255701"}, {"id": "979", "loc_name": "徐州安保中等专业学校", "lon": "116.920262", "lat": "34.762456"}, {"id": "980", "loc_name": "徐州市博通职业学校", "lon": "117.174936", "lat": "34.230722"}, {"id": "981", "loc_name": "南京工业技工学校(新沂分校)", "lon": "118.321596", "lat": "34.374222"}, {"id": "982", "loc_name": "徐州电力工业学校", "lon": "117.249220", "lat": "34.374610"}, {"id": "983", "loc_name": "黄山外国语学校西校区(公交站)", "lon": "117.355087", "lat": "34.296783"}, {"id": "984", "loc_name": "江苏省沛县中等专业学校", "lon": "116.945367", "lat": "34.713809"}, {"id": "985", "loc_name": "江苏省贾汪中等专业学校", "lon": "117.475726", "lat": "34.424788"}, {"id": "986", "loc_name": "神舟电脑学校", "lon": "117.398105", "lat": "34.321286"}, {"id": "987", "loc_name": "徐州市淮海职业技术学校", "lon": "117.221633", "lat": "34.286499"}, {"id": "988", "loc_name": "江苏省徐州市中等专业学校", "lon": "117.237575", "lat": "34.204999"}, {"id": "989", "loc_name": "徐州食尚烹饪学校", "lon": "117.191420", "lat": "34.240226"}, {"id": "990", "loc_name": "徐州经济技术开发区工业学校", "lon": "117.367135", "lat": "34.250881"}, {"id": "991", "loc_name": "江苏省邳州中等专业学校", "lon": "118.027152", "lat": "34.347226"}, {"id": "992", "loc_name": "黄家技术学校", "lon": "116.662343", "lat": "34.865438"}, {"id": "993", "loc_name": "张集职业高级中学", "lon": "117.354723", "lat": "34.11655"}, {"id": "994", "loc_name": "徐州市中等专业学校", "lon": "117.182902", "lat": "34.256041"}, {"id": "995", "loc_name": "虹桥职业技术学校", "lon": "118.321548", "lat": "34.374221"}, {"id": "996", "loc_name": "神舟职业技术学校", "lon": "118.367749", "lat": "34.370398"}, {"id": "997", "loc_name": "徐州市蓝成艺术学校", "lon": "117.169790", "lat": "34.250433"}, {"id": "998", "loc_name": "黑蚁摄影艺术学校", "lon": "117.191134", "lat": "34.195715"}, {"id": "999", "loc_name": "徐州铁路运输技工学校", "lon": "117.218899", "lat": "34.290428"}, {"id": "1000", "loc_name": "徐州万里职业技术学校", "lon": "117.204315", "lat": "34.330286"}]}